[
  {
    "id": 1,
    "name": "Detroit-Windsor",
    "country": "USA-Canada",
    "wait_time": 42,
    "throughput": 1200,
    "commodity": "Automobiles",
    "lat": 42.3149,
    "lng": -83.0364,
    "status": "Active",
    "risk_level": "Low",
    "type": "Land/Bridge"
  },
  {
    "id": 2,
    "name": "San Ysidro",
    "country": "USA-Mexico",
    "wait_time": 78,
    "throughput": 3400,
    "commodity": "Consumer Goods",
    "lat": 32.5439,
    "lng": -117.0297,
    "status": "Active",
    "risk_level": "Medium",
    "type": "Land"
  },
  {
    "id": 3,
    "name": "Calais-Dover",
    "country": "France-UK",
    "wait_time": 15,
    "throughput": 10000,
    "commodity": "Mixed Goods",
    "lat": 50.9513,
    "lng": 1.8587,
    "status": "Active",
    "risk_level": "Low",
    "type": "Sea/Tunnel"
  },
  {
    "id": 4,
    "name": "Wagah Border",
    "country": "India-Pakistan",
    "wait_time": 45,
    "throughput": 1200,
    "commodity": "Agricultural",
    "lat": 31.6040,
    "lng": 74.5726,
    "status": "Restricted",
    "risk_level": "High",
    "type": "Land"
  },
  {
    "id": 5,
    "name": "Singapore-Woodlands",
    "country": "Singapore-Malaysia",
    "wait_time": 20,
    "throughput": 50000,
    "commodity": "Electronics",
    "lat": 1.4433,
    "lng": 103.7767,
    "status": "Active",
    "risk_level": "Low",
    "type": "Land/Bridge"
  },
  {
    "id": 6,
    "name": "Rafah Crossing",
    "country": "Egypt-Palestine",
    "wait_time": 180,
    "throughput": 100,
    "commodity": "Humanitarian",
    "lat": 31.2833,
    "lng": 34.2333,
    "status": "Restricted",
    "risk_level": "High",
    "type": "Land"
  },
  {
    "id": 7,
    "name": "Peace Arch",
    "country": "USA-Canada",
    "wait_time": 10,
    "throughput": 25000,
    "commodity": "Mixed Goods",
    "lat": 48.9988,
    "lng": -122.7558,
    "status": "Active",
    "risk_level": "Low",
    "type": "Land"
  },
  {
    "id": 8,
    "name": "Bab al-Hawa",
    "country": "Turkey-Syria",
    "wait_time": 120,
    "throughput": 300,
    "commodity": "Humanitarian",
    "lat": 36.2833,
    "lng": 36.6333,
    "status": "Restricted",
    "risk_level": "High",
    "type": "Land"
  },
  {
    "id": 9,
    "name": "Petrapole-Benapole",
    "country": "India-Bangladesh",
    "wait_time": 30,
    "throughput": 3500,
    "commodity": "Agricultural",
    "lat": 23.0167,
    "lng": 88.9333,
    "status": "Active",
    "risk_level": "Low",
    "type": "Land"
  },
  {
    "id": 10,
    "name": "Lo Wu",
    "country": "Hong Kong-China",
    "wait_time": 25,
    "throughput": 80000,
    "commodity": "Electronics",
    "lat": 22.5267,
    "lng": 114.1133,
    "status": "Active",
    "risk_level": "Low",
    "type": "Rail/Land"
  },
  {
    "id": 11,
    "name": "Nathu La Pass",
    "country": "India-China",
    "wait_time": 60,
    "throughput": 200,
    "commodity": "Mixed Goods",
    "lat": 27.3833,
    "lng": 88.8333,
    "status": "Seasonal",
    "risk_level": "Medium",
    "type": "Mountain Pass"
  },
  {
    "id": 12,
    "name": "Moreh-Tamu",
    "country": "India-Myanmar",
    "wait_time": 20,
    "throughput": 800,
    "commodity": "Agricultural",
    "lat": 24.2500,
    "lng": 94.2667,
    "status": "Active",
    "risk_level": "Medium",
    "type": "Land"
  }
]
